{
  "providers": [
    {
      "guid" : "5572f886-7105-4267-84e1-cfa8aa052608",
      "name" : "MICHIGAN AVENUE PRIMARY CARE / IMMEDIATE CARE",
      "address1" : "180 N Michigan Ave #1605",
      "address2" : "",
      "city" : "Chicago",
      "state" : "IL",
      "zip" : "60601",
      "phone" : "",
      "distance" : 0.08,
      "lat" : 41.885511,
      "long" : -87.624889,
      "accepts_walk_ins" : false,
      "appointments_available" : "UNKNOWN",
      "in_stock" : true
    },
    {
      "guid" : "46bf1df3-6215-44b9-b1ed-b9863b6825a6",
      "name" : "CVS Pharmacy, Inc. #04781",
      "address1" : "205 N Michigan Ave",
      "address2" : "",
      "city" : "Chicago",
      "state" : "IL",
      "zip" : "60601",
      "phone" : "(312) 938-4091",
      "distance" : 0.09,
      "lat" : 41.886098,
      "long" : -87.624033,
      "accepts_walk_ins" : true,
      "appointments_available" : "TRUE",
      "in_stock" : true
    },
    {
      "guid" : "ed3f9095-3156-4f8c-86bc-46f0894497bc",
      "name" : "Walgreens Co. #9438",
      "address1" : "30 N Michigan Ave LBBY 1",
      "address2" : "",
      "city" : "Chicago",
      "state" : "IL",
      "zip" : "60602",
      "phone" : "312-332-3540",
      "distance" : 0.14,
      "lat" : 41.883004,
      "long" : -87.624772,
      "accepts_walk_ins" : true,
      "appointments_available" : "TRUE",
      "in_stock" : true
    },
    {
      "guid" : "aadf16d6-5525-46a6-9f8c-4ada508107bb",
      "name" : "Walgreens Co. #15196",
      "address1" : "Flair Tower, 151 N State St FL 1ST",
      "address2" : "",
      "city" : "Chicago",
      "state" : "IL",
      "zip" : "60601",
      "phone" : "312-863-4249",
      "distance" : 0.21,
      "lat" : 41.884799,
      "long" : -87.627623,
      "accepts_walk_ins" : true,
      "appointments_available" : "TRUE",
      "in_stock" : true
    },
    {
      "guid" : "6d374217-a6e7-47ce-8a99-0426f5bf6d85",
      "name" : "CVS Pharmacy, Inc. #17643",
      "address1" : "1 S State St",
      "address2" : "",
      "city" : "Chicago",
      "state" : "IL",
      "zip" : "60603",
      "phone" : "(312) 279-2134",
      "distance" : 0.3,
      "lat" : 41.881792,
      "long" : -87.627525,
      "accepts_walk_ins" : true,
      "appointments_available" : "TRUE",
      "in_stock" : true
    }
  ],
  "current_page" : 1,
  "total_pages" : 1
}

